[{"id":"UHhG9Tl2wtuyg3rgmzejTw","alias":"saffron-spice-seattle","name":"Saffron Spice","image_url":"https://s3-media1.fl.yelpcdn.com/bphoto/_K1CGA8J9PMfEKJqrqpn_g/o.jpg","is_closed":false,"url":"https://www.yelp.com/biz/saffron-spice-seattle?adjust_creative=-PQIWmk6RQXe-UkeH6MNVg&utm_campaign=yelp_api_v3&utm_medium=api_v3_business_search&utm_source=-PQIWmk6RQXe-UkeH6MNVg","review_count":117,"categories":[{"alias":"indpak","title":"Indian"},{"alias":"juicebars","title":"Juice Bars & Smoothies"},{"alias":"foodtrucks","title":"Food Trucks"}],"rating":3.5,"coordinates":{"latitude":47.60865879388767,"longitude":-122.34008240558089},"transactions":["delivery"],"price":"$","location":{"address1":"93 Pike St","address2":"Ste 3","address3":"","city":"Seattle","zip_code":"98101","country":"US","state":"WA","display_address":["93 Pike St","Ste 3","Seattle, WA 98101"]},"phone":"+12066822593","display_phone":"(206) 682-2593","distance":1442.993169319352},{"id":"2vK5jO0iN8qLZaejIODbkA","alias":"naansense-seattle","name":"Naansense","image_url":"https://s3-media2.fl.yelpcdn.com/bphoto/clz9YBmLRZaZIbq56czsUQ/o.jpg","is_closed":false,"url":"https://www.yelp.com/biz/naansense-seattle?adjust_creative=-PQIWmk6RQXe-UkeH6MNVg&utm_campaign=yelp_api_v3&utm_medium=api_v3_business_search&utm_source=-PQIWmk6RQXe-UkeH6MNVg","review_count":77,"categories":[{"alias":"foodtrucks","title":"Food Trucks"},{"alias":"indpak","title":"Indian"},{"alias":"catering","title":"Caterers"}],"rating":4,"coordinates":{"latitude":47.61125,"longitude":-122.33493},"transactions":[],"price":"$","location":{"address1":"","address2":"","address3":"","city":"Seattle","zip_code":"98101","country":"US","state":"WA","display_address":["Seattle, WA 98101"]},"phone":"+12066969320","display_phone":"(206) 696-9320","distance":1708.1384679366677},{"id":"EesCQi6OGjK6_yJ1nlIYxQ","alias":"my-sweet-lil-cakes-seattle-2","name":"My Sweet Lil Cakes","image_url":"https://s3-media3.fl.yelpcdn.com/bphoto/FH9ChlxqmejIrr37_TxCQg/o.jpg","is_closed":false,"url":"https://www.yelp.com/biz/my-sweet-lil-cakes-seattle-2?adjust_creative=-PQIWmk6RQXe-UkeH6MNVg&utm_campaign=yelp_api_v3&utm_medium=api_v3_business_search&utm_source=-PQIWmk6RQXe-UkeH6MNVg","review_count":116,"categories":[{"alias":"desserts","title":"Desserts"},{"alias":"foodtrucks","title":"Food Trucks"},{"alias":"catering","title":"Caterers"}],"rating":4.5,"coordinates":{"latitude":47.61125,"longitude":-122.33493},"transactions":["pickup"],"price":"$","location":{"address1":"","address2":null,"address3":"","city":"Seattle","zip_code":"98101","country":"US","state":"WA","display_address":["Seattle, WA 98101"]},"phone":"+12062653002","display_phone":"(206) 265-3002","distance":1708.1384679366677},{"id":"SN2wJZojnmfra9oC0kGbjg","alias":"cocina-buena-food-truck-seattle","name":"Cocina Buena -  Food Truck","image_url":"https://s3-media2.fl.yelpcdn.com/bphoto/k32t2TOCLSOYCYs1Gj8ibg/o.jpg","is_closed":false,"url":"https://www.yelp.com/biz/cocina-buena-food-truck-seattle?adjust_creative=-PQIWmk6RQXe-UkeH6MNVg&utm_campaign=yelp_api_v3&utm_medium=api_v3_business_search&utm_source=-PQIWmk6RQXe-UkeH6MNVg","review_count":9,"categories":[{"alias":"salad","title":"Salad"},{"alias":"bbq","title":"Barbeque"},{"alias":"foodtrucks","title":"Food Trucks"}],"rating":2.5,"coordinates":{"latitude":47.609535217285156,"longitude":-122.33599853515625},"transactions":[],"price":"$$","location":{"address1":"","address2":"","address3":null,"city":"Seattle","zip_code":"98101","country":"US","state":"WA","display_address":["Seattle, WA 98101"]},"phone":"+12069795902","display_phone":"(206) 979-5902","distance":1708.1384679366677},{"id":"Ubzl-7XDj4SAwpuSLwjF6w","alias":"silver-spork-food-truck-seattle","name":"Silver Spork Food Truck","image_url":"https://s3-media2.fl.yelpcdn.com/bphoto/0CFCZR7OW7ym0apgsCAodA/o.jpg","is_closed":false,"url":"https://www.yelp.com/biz/silver-spork-food-truck-seattle?adjust_creative=-PQIWmk6RQXe-UkeH6MNVg&utm_campaign=yelp_api_v3&utm_medium=api_v3_business_search&utm_source=-PQIWmk6RQXe-UkeH6MNVg","review_count":26,"categories":[{"alias":"foodtrucks","title":"Food Trucks"},{"alias":"comfortfood","title":"Comfort Food"}],"rating":4,"coordinates":{"latitude":47.61125,"longitude":-122.33493},"transactions":[],"price":"$$","location":{"address1":"","address2":"","address3":null,"city":"Seattle","zip_code":"98101","country":"US","state":"WA","display_address":["Seattle, WA 98101"]},"phone":"+12537401506","display_phone":"(253) 740-1506","distance":1708.1384679366677},{"id":"gOPpROjtxRN1gkep7tvG2Q","alias":"incredibowls-seattle-2","name":"Incredibowls","image_url":"https://s3-media1.fl.yelpcdn.com/bphoto/goM8f_kkZKr0wY7E0QwlHw/o.jpg","is_closed":false,"url":"https://www.yelp.com/biz/incredibowls-seattle-2?adjust_creative=-PQIWmk6RQXe-UkeH6MNVg&utm_campaign=yelp_api_v3&utm_medium=api_v3_business_search&utm_source=-PQIWmk6RQXe-UkeH6MNVg","review_count":46,"categories":[{"alias":"foodtrucks","title":"Food Trucks"},{"alias":"catering","title":"Caterers"},{"alias":"korean","title":"Korean"}],"rating":4.5,"coordinates":{"latitude":47.61125,"longitude":-122.33493},"transactions":[],"price":"$$","location":{"address1":"","address2":null,"address3":"","city":"Seattle","zip_code":"98101","country":"US","state":"WA","display_address":["Seattle, WA 98101"]},"phone":"+12063534394","display_phone":"(206) 353-4394","distance":1708.1384679366677},{"id":"ZNbLqO1tJQ3_XGSDO-Dtlg","alias":"napkin-friends-seattle","name":"Napkin Friends","image_url":"https://s3-media1.fl.yelpcdn.com/bphoto/WDuP5HfD6EwYST3ZAEHGkA/o.jpg","is_closed":false,"url":"https://www.yelp.com/biz/napkin-friends-seattle?adjust_creative=-PQIWmk6RQXe-UkeH6MNVg&utm_campaign=yelp_api_v3&utm_medium=api_v3_business_search&utm_source=-PQIWmk6RQXe-UkeH6MNVg","review_count":83,"categories":[{"alias":"foodtrucks","title":"Food Trucks"},{"alias":"sandwiches","title":"Sandwiches"},{"alias":"catering","title":"Caterers"}],"rating":4.5,"coordinates":{"latitude":47.61157,"longitude":-122.3353},"transactions":[],"price":"$","location":{"address1":"","address2":"","address3":"","city":"Seattle","zip_code":"98101","country":"US","state":"WA","display_address":["Seattle, WA 98101"]},"phone":"+12064594936","display_phone":"(206) 459-4936","distance":1708.1384679366677},{"id":"5ogbGkcTcZn-hND7G4s-4g","alias":"yumbit-lenora-seattle","name":"Yumbit Lenora","image_url":"","is_closed":false,"url":"https://www.yelp.com/biz/yumbit-lenora-seattle?adjust_creative=-PQIWmk6RQXe-UkeH6MNVg&utm_campaign=yelp_api_v3&utm_medium=api_v3_business_search&utm_source=-PQIWmk6RQXe-UkeH6MNVg","review_count":1,"categories":[{"alias":"chinese","title":"Chinese"},{"alias":"taiwanese","title":"Taiwanese"},{"alias":"foodtrucks","title":"Food Trucks"}],"rating":5,"coordinates":{"latitude":47.615574823365,"longitude":-122.339174937482},"transactions":["pickup","delivery"],"location":{"address1":"630 Lenora St","address2":null,"address3":null,"city":"Seattle","zip_code":"98121","country":"US","state":"WA","display_address":["630 Lenora St","Seattle, WA 98121"]},"phone":"+14254432822","display_phone":"(425) 443-2822","distance":1848.6720061849137},{"id":"iEqVDylPLvothpTwrRDQuw","alias":"lunch-on-the-plate-seattle","name":"LUNCH ON THE PLATE","image_url":"https://s3-media2.fl.yelpcdn.com/bphoto/5toIOLhuc76rcNEAqMYEaQ/o.jpg","is_closed":false,"url":"https://www.yelp.com/biz/lunch-on-the-plate-seattle?adjust_creative=-PQIWmk6RQXe-UkeH6MNVg&utm_campaign=yelp_api_v3&utm_medium=api_v3_business_search&utm_source=-PQIWmk6RQXe-UkeH6MNVg","review_count":10,"categories":[{"alias":"foodtrucks","title":"Food Trucks"},{"alias":"taiwanese","title":"Taiwanese"}],"rating":4.5,"coordinates":{"latitude":47.613428,"longitude":-122.336186},"transactions":[],"location":{"address1":"600 Olive Way","address2":null,"address3":"","city":"Seattle","zip_code":"98101","country":"US","state":"WA","display_address":["600 Olive Way","Seattle, WA 98101"]},"phone":"","display_phone":"","distance":1906.0976525270373},{"id":"zuq6gZfutnkqBYstxLtDuQ","alias":"the-seattle-barkery-seattle","name":"The Seattle Barkery","image_url":"https://s3-media1.fl.yelpcdn.com/bphoto/mU1PwoWRuf5fmCz_o8VvNQ/o.jpg","is_closed":false,"url":"https://www.yelp.com/biz/the-seattle-barkery-seattle?adjust_creative=-PQIWmk6RQXe-UkeH6MNVg&utm_campaign=yelp_api_v3&utm_medium=api_v3_business_search&utm_source=-PQIWmk6RQXe-UkeH6MNVg","review_count":69,"categories":[{"alias":"foodtrucks","title":"Food Trucks"},{"alias":"petstore","title":"Pet Stores"}],"rating":5,"coordinates":{"latitude":47.61747,"longitude":-122.34018},"transactions":[],"price":"$","location":{"address1":"2225 8th Ave","address2":"","address3":"","city":"Seattle","zip_code":"98121","country":"US","state":"WA","display_address":["2225 8th Ave","Seattle, WA 98121"]},"phone":"+12068511549","display_phone":"(206) 851-1549","distance":1924.7905786123263},{"id":"4g7shYUNzEjkfpBxeT6cUg","alias":"green-tree-food-truck-seattle","name":"Green Tree Food Truck","image_url":"https://s3-media1.fl.yelpcdn.com/bphoto/Qon0Xd_VshqNES8IeyORsg/o.jpg","is_closed":false,"url":"https://www.yelp.com/biz/green-tree-food-truck-seattle?adjust_creative=-PQIWmk6RQXe-UkeH6MNVg&utm_campaign=yelp_api_v3&utm_medium=api_v3_business_search&utm_source=-PQIWmk6RQXe-UkeH6MNVg","review_count":7,"categories":[{"alias":"foodtrucks","title":"Food Trucks"},{"alias":"mideastern","title":"Middle Eastern"}],"rating":2.5,"coordinates":{"latitude":47.61167,"longitude":-122.334671},"transactions":[],"price":"$$","location":{"address1":"1506 6th Ave","address2":"","address3":"","city":"Seattle","zip_code":"98119","country":"US","state":"WA","display_address":["1506 6th Ave","Seattle, WA 98119"]},"phone":"+16789493185","display_phone":"(678) 949-3185","distance":1930.5303532713647},{"id":"SXHcUq3LbblU47W6EDeChQ","alias":"itty-bitty-schnitty-seattle","name":"Itty Bitty Schnitty","image_url":"https://s3-media1.fl.yelpcdn.com/bphoto/jZfECIruwstH2Ailj8voow/o.jpg","is_closed":false,"url":"https://www.yelp.com/biz/itty-bitty-schnitty-seattle?adjust_creative=-PQIWmk6RQXe-UkeH6MNVg&utm_campaign=yelp_api_v3&utm_medium=api_v3_business_search&utm_source=-PQIWmk6RQXe-UkeH6MNVg","review_count":23,"categories":[{"alias":"foodtrucks","title":"Food Trucks"},{"alias":"german","title":"German"}],"rating":4.5,"coordinates":{"latitude":47.6062095,"longitude":-122.3320708},"transactions":[],"location":{"address1":null,"address2":"","address3":null,"city":"Seattle","zip_code":"98101","country":"US","state":"WA","display_address":["Seattle, WA 98101"]},"phone":"+12066934900","display_phone":"(206) 693-4900","distance":2002.9809223439024},{"id":"AwxF0LdpYQMBLZNpY7io-A","alias":"indochinese-wok-seattle-3","name":"Indochinese Wok","image_url":"https://s3-media2.fl.yelpcdn.com/bphoto/XF5TxcPBhZZizTSVyBvmSw/o.jpg","is_closed":false,"url":"https://www.yelp.com/biz/indochinese-wok-seattle-3?adjust_creative=-PQIWmk6RQXe-UkeH6MNVg&utm_campaign=yelp_api_v3&utm_medium=api_v3_business_search&utm_source=-PQIWmk6RQXe-UkeH6MNVg","review_count":9,"categories":[{"alias":"indpak","title":"Indian"},{"alias":"chinese","title":"Chinese"},{"alias":"foodtrucks","title":"Food Trucks"}],"rating":4,"coordinates":{"latitude":47.6157331399051,"longitude":-122.336643785897},"transactions":[],"location":{"address1":"2000 8th Ave","address2":"","address3":null,"city":"Seattle","zip_code":"98121","country":"US","state":"WA","display_address":["2000 8th Ave","Seattle, WA 98121"]},"phone":"","display_phone":"","distance":2008.30572278269},{"id":"j7bLg8QJKQMnkd25A8ZBlA","alias":"tats-truck-seattle","name":"Tat's Truck","image_url":"https://s3-media2.fl.yelpcdn.com/bphoto/E3i5szkNjaGx6HJ9FUSnFg/o.jpg","is_closed":false,"url":"https://www.yelp.com/biz/tats-truck-seattle?adjust_creative=-PQIWmk6RQXe-UkeH6MNVg&utm_campaign=yelp_api_v3&utm_medium=api_v3_business_search&utm_source=-PQIWmk6RQXe-UkeH6MNVg","review_count":69,"categories":[{"alias":"foodtrucks","title":"Food Trucks"},{"alias":"delis","title":"Delis"},{"alias":"cheesesteaks","title":"Cheesesteaks"}],"rating":4.5,"coordinates":{"latitude":47.6015215617005,"longitude":-122.332388162613},"transactions":[],"price":"$$","location":{"address1":"","address2":"","address3":"","city":"Seattle","zip_code":"98104","country":"US","state":"WA","display_address":["Seattle, WA 98104"]},"phone":"+12065382133","display_phone":"(206) 538-2133","distance":2028.0164242062265},{"id":"2l1vbc9zwpyTwzywo8Y17Q","alias":"where-ya-at-matt-seattle","name":"Where Ya At Matt","image_url":"https://s3-media2.fl.yelpcdn.com/bphoto/cjycigyHwSSpO-hdkAuYCw/o.jpg","is_closed":false,"url":"https://www.yelp.com/biz/where-ya-at-matt-seattle?adjust_creative=-PQIWmk6RQXe-UkeH6MNVg&utm_campaign=yelp_api_v3&utm_medium=api_v3_business_search&utm_source=-PQIWmk6RQXe-UkeH6MNVg","review_count":321,"categories":[{"alias":"cajun","title":"Cajun/Creole"},{"alias":"soulfood","title":"Soul Food"},{"alias":"foodtrucks","title":"Food Trucks"}],"rating":4,"coordinates":{"latitude":47.6032409667969,"longitude":-122.328681945801},"transactions":[],"price":"$$","location":{"address1":"","address2":"","address3":"","city":"Seattle","zip_code":"98104","country":"US","state":"WA","display_address":["Seattle, WA 98104"]},"phone":"","display_phone":"","distance":2031.0407167550275},{"id":"8esvFP1oBXmovufkZEgxzw","alias":"mami-tran-seattle","name":"Mami Tran","image_url":"https://s3-media3.fl.yelpcdn.com/bphoto/xd7OZZuKuP4jRsnbdBil-A/o.jpg","is_closed":false,"url":"https://www.yelp.com/biz/mami-tran-seattle?adjust_creative=-PQIWmk6RQXe-UkeH6MNVg&utm_campaign=yelp_api_v3&utm_medium=api_v3_business_search&utm_source=-PQIWmk6RQXe-UkeH6MNVg","review_count":44,"categories":[{"alias":"foodtrucks","title":"Food Trucks"},{"alias":"vietnamese","title":"Vietnamese"},{"alias":"sandwiches","title":"Sandwiches"}],"rating":4.5,"coordinates":{"latitude":47.6028213500977,"longitude":-122.329261779785},"transactions":[],"location":{"address1":null,"address2":null,"address3":"","city":"Seattle","zip_code":"98104","country":"US","state":"WA","display_address":["Seattle, WA 98104"]},"phone":"+12068839975","display_phone":"(206) 883-9975","distance":2031.0407167550275},{"id":"bQeBn2adqJC7EcgtcJ395w","alias":"kathmandu-momocha-seattle-3","name":"Kathmandu Momocha","image_url":"https://s3-media4.fl.yelpcdn.com/bphoto/GOoVzhiFDNRhGUhbbIE1WA/o.jpg","is_closed":false,"url":"https://www.yelp.com/biz/kathmandu-momocha-seattle-3?adjust_creative=-PQIWmk6RQXe-UkeH6MNVg&utm_campaign=yelp_api_v3&utm_medium=api_v3_business_search&utm_source=-PQIWmk6RQXe-UkeH6MNVg","review_count":45,"categories":[{"alias":"himalayan","title":"Himalayan/Nepalese"},{"alias":"foodtrucks","title":"Food Trucks"}],"rating":4.5,"coordinates":{"latitude":47.70975112915039,"longitude":-122.32057189941406},"transactions":["pickup","delivery"],"location":{"address1":"","address2":"","address3":null,"city":"Seattle","zip_code":"98175","country":"US","state":"WA","display_address":["Seattle, WA 98175"]},"phone":"+12066943651","display_phone":"(206) 694-3651","distance":2212.8457632632108},{"id":"Jir5zkSkrMpCJfFE4hiuFQ","alias":"the-peoples-burger-seattle","name":"The People's Burger","image_url":"https://s3-media1.fl.yelpcdn.com/bphoto/Ez_9l3hWRErkzyggEU2IJw/o.jpg","is_closed":false,"url":"https://www.yelp.com/biz/the-peoples-burger-seattle?adjust_creative=-PQIWmk6RQXe-UkeH6MNVg&utm_campaign=yelp_api_v3&utm_medium=api_v3_business_search&utm_source=-PQIWmk6RQXe-UkeH6MNVg","review_count":110,"categories":[{"alias":"foodtrucks","title":"Food Trucks"},{"alias":"burgers","title":"Burgers"},{"alias":"tradamerican","title":"American (Traditional)"}],"rating":4,"coordinates":{"latitude":47.594872355549825,"longitude":-122.33333945877544},"transactions":[],"price":"$","location":{"address1":"922 Occidental Ave S","address2":"","address3":"","city":"Seattle","zip_code":"98134","country":"US","state":"WA","display_address":["922 Occidental Ave S","Seattle, WA 98134"]},"phone":"+14254715781","display_phone":"(425) 471-5781","distance":2246.163709620432},{"id":"IhxGiOydT-wmrXeTCEjf_w","alias":"tacos-el-tajin-seattle","name":"Tacos El Tajin","image_url":"https://s3-media2.fl.yelpcdn.com/bphoto/NxA7KR9t1CBx2Njw6dh5hw/o.jpg","is_closed":false,"url":"https://www.yelp.com/biz/tacos-el-tajin-seattle?adjust_creative=-PQIWmk6RQXe-UkeH6MNVg&utm_campaign=yelp_api_v3&utm_medium=api_v3_business_search&utm_source=-PQIWmk6RQXe-UkeH6MNVg","review_count":106,"categories":[{"alias":"mexican","title":"Mexican"},{"alias":"foodtrucks","title":"Food Trucks"}],"rating":4,"coordinates":{"latitude":47.6232358,"longitude":-122.3430295},"transactions":[],"price":"$","location":{"address1":"Boren Ave N Republican St","address2":null,"address3":"","city":"Seattle","zip_code":"98109","country":"US","state":"WA","display_address":["Boren Ave N Republican St","Seattle, WA 98109"]},"phone":"+12537970142","display_phone":"(253) 797-0142","distance":2293.3741619512225},{"id":"o2BJ-GAetKKTJ8yqz4YI_Q","alias":"snout-and-co-seattle-2","name":"Snout & Co.","image_url":"https://s3-media3.fl.yelpcdn.com/bphoto/aFCjE2vm1tzhKVjVgM3G7A/o.jpg","is_closed":false,"url":"https://www.yelp.com/biz/snout-and-co-seattle-2?adjust_creative=-PQIWmk6RQXe-UkeH6MNVg&utm_campaign=yelp_api_v3&utm_medium=api_v3_business_search&utm_source=-PQIWmk6RQXe-UkeH6MNVg","review_count":119,"categories":[{"alias":"cuban","title":"Cuban"},{"alias":"catering","title":"Caterers"},{"alias":"foodtrucks","title":"Food Trucks"}],"rating":4,"coordinates":{"latitude":47.6199865379172,"longitude":-122.336797694907},"transactions":[],"price":"$","location":{"address1":"","address2":"","address3":"","city":"Seattle","zip_code":"98109","country":"US","state":"WA","display_address":["Seattle, WA 98109"]},"phone":"+12068500941","display_phone":"(206) 850-0941","distance":2299.9361115976567}]